{"type":"FeatureCollection","features":[{"type":"Feature","properties":{"Name":"Saik'uz"},"geometry":{"type":"Point","coordinates":[-124.06911849975586,53.95992359899387]}},{"type":"Feature","properties":{"Name":"Nadleh"},"geometry":{"type":"Point","coordinates":[-124.60976600646973,54.07344097398336]}},{"type":"Feature","properties":{"Name":"Stellat'en"},"geometry":{"type":"Point","coordinates":[-124.90854263305664,54.06107551573467]}},{"type":"Feature","properties":{"Name":"Burns Lake "},"geometry":{"type":"Point","coordinates":[-125.76719284057619,54.23674151771537]}},{"type":"Feature","properties":{"Name":"Lake Babine - Woyenne"},"geometry":{"type":"Point","coordinates":[-125.76358795166016,54.253592732719106]}},{"type":"Feature","properties":{"Name":"Lake Babine -Tachet "},"geometry":{"type":"Point","coordinates":[-126.14690780639648,54.81681041595936]}},{"type":"Feature","properties":{"Name":"Nee Tahi-Buhn"},"geometry":{"type":"Point","coordinates":[-125.80461502075194,54.02209142616588]}},{"type":"Feature","properties":{"Name":"Cheslatta Carrier"},"geometry":{"type":"Point","coordinates":[-125.7685661315918,54.02057870158285]}},{"type":"Feature","properties":{"Name":"Skin Tyee"},"geometry":{"type":"Point","coordinates":[-125.73131561279297,54.015132437554136]}},{"type":"Feature","properties":{"Name":"Takla Lake"},"geometry":{"type":"Point","coordinates":[-125.86761474609374,55.441479359140686]}},{"type":"Feature","properties":{"Name":"Yekooche"},"geometry":{"type":"Point","coordinates":[-125.08140563964844,54.59892007568796]}},{"type":"Feature","properties":{"Name":"Fort Babine"},"geometry":{"type":"Point","coordinates":[-126.62532806396483,55.31996410374263]}},{"type":"Feature","properties":{"Name":"Wet'suwet'en"},"geometry":{"type":"Point","coordinates":[-125.88220596313475,54.326735363462106]}}]}