{"type":"FeatureCollection","features":[{"type":"Feature","id":1,"geometry":{"type":"Point","coordinates":[-122.89448699999997,49.227045000000032]},"properties":{"OBJECTID":1,"field_1":1,"City__Vill":"Metro Van - New Westminster","Latitude__":49.227044999999997,"Longitude_":-122.894487,"week_1_fire_season_Week_High":6.9166666666666696,"week_1_fire_season_Week_Number":1}},{"type":"Feature","id":2,"geometry":{"type":"Point","coordinates":[-122.97070699999995,49.279214000000081]},"properties":{"OBJECTID":2,"field_1":2,"City__Vill":"Metro Van - Burnaby","Latitude__":49.279214000000003,"Longitude_":-122.970707,"week_1_fire_season_Week_High":6.25,"week_1_fire_season_Week_Number":1}},{"type":"Feature","id":3,"geometry":{"type":"Point","coordinates":[-122.84929099999999,49.280893000000049]},"properties":{"OBJECTID":3,"field_1":3,"City__Vill":"Metro Van - Port Moody","Latitude__":49.280892999999999,"Longitude_":-122.84929099999999,"week_1_fire_season_Week_High":4.5,"week_1_fire_season_Week_Number":1}},{"type":"Feature","id":4,"geometry":{"type":"Point","coordinates":[-123.02041699999995,49.301472000000047]},"properties":{"OBJECTID":4,"field_1":4,"City__Vill":"Metro Van - North Vancouver","Latitude__":49.301471999999997,"Longitude_":-123.02041699999999,"week_1_fire_season_Week_High":7.5,"week_1_fire_season_Week_Number":1}},{"type":"Feature","id":5,"geometry":{"type":"Point","coordinates":[-122.90172999999999,49.158348000000046]},"properties":{"OBJECTID":5,"field_1":5,"City__Vill":"Metro Van - Delta","Latitude__":49.158347999999997,"Longitude_":-122.90173,"week_1_fire_season_Week_High":6.4166666666666696,"week_1_fire_season_Week_Number":1}},{"type":"Feature","id":6,"geometry":{"type":"Point","coordinates":[-122.69422399999996,49.132928000000049]},"properties":{"OBJECTID":6,"field_1":6,"City__Vill":"Metro Van - Surrey","Latitude__":49.132928,"Longitude_":-122.69422400000001,"week_1_fire_season_Week_High":5.4166666666666696,"week_1_fire_season_Week_Number":1}},{"type":"Feature","id":7,"geometry":{"type":"Point","coordinates":[-123.10821499999997,49.141437000000053]},"properties":{"OBJECTID":7,"field_1":7,"City__Vill":"Metro Van - Richmond","Latitude__":49.141437000000003,"Longitude_":-123.108215,"week_1_fire_season_Week_High":7.4166666666666696,"week_1_fire_season_Week_Number":1}},{"type":"Feature","id":8,"geometry":{"type":"Point","coordinates":[-123.27674099999996,49.368610000000047]},"properties":{"OBJECTID":8,"field_1":8,"City__Vill":"Metro Van - West Vancouver","Latitude__":49.368609999999997,"Longitude_":-123.276741,"week_1_fire_season_Week_High":4.75,"week_1_fire_season_Week_Number":1}},{"type":"Feature","id":9,"geometry":{"type":"Point","coordinates":[-123.07777599999997,49.260267000000056]},"properties":{"OBJECTID":9,"field_1":9,"City__Vill":"Metro Van - Vancouver","Latitude__":49.260266999999999,"Longitude_":-123.077776,"week_1_fire_season_Week_High":7.75,"week_1_fire_season_Week_Number":1}},{"type":"Feature","id":10,"geometry":{"type":"Point","coordinates":[-121.76226399999996,49.238008000000036]},"properties":{"OBJECTID":10,"field_1":10,"City__Vill":"Agassiz","Latitude__":49.238008000000001,"Longitude_":-121.762264,"week_1_fire_season_Week_High":9.6666666666666696,"week_1_fire_season_Week_Number":1}},{"type":"Feature","id":11,"geometry":{"type":"Point","coordinates":[-122.74193999999994,53.914720000000045]},"properties":{"OBJECTID":11,"field_1":11,"City__Vill":"Prince George","Latitude__":53.914720000000003,"Longitude_":-122.74194,"week_1_fire_season_Week_High":26.4166666666667,"week_1_fire_season_Week_Number":1}},{"type":"Feature","id":12,"geometry":{"type":"Point","coordinates":[-120.33401599999996,50.67477000000008]},"properties":{"OBJECTID":12,"field_1":12,"City__Vill":"Kamloops","Latitude__":50.674770000000002,"Longitude_":-120.33401600000001,"week_1_fire_season_Week_High":8.4166666666666696,"week_1_fire_season_Week_Number":1}},{"type":"Feature","id":13,"geometry":{"type":"Point","coordinates":[-119.47736699999996,49.862336000000028]},"properties":{"OBJECTID":13,"field_1":13,"City__Vill":"Kelowna","Latitude__":49.862335999999999,"Longitude_":-119.477367,"week_1_fire_season_Week_High":4.9166666666666696,"week_1_fire_season_Week_Number":1}},{"type":"Feature","id":14,"geometry":{"type":"Point","coordinates":[-122.30981999999995,49.042580000000044]},"properties":{"OBJECTID":14,"field_1":14,"City__Vill":"Metro Van - Abbotsford","Latitude__":49.042580000000001,"Longitude_":-122.30982,"week_1_fire_season_Week_High":6.5,"week_1_fire_season_Week_Number":1}},{"type":"Feature","id":15,"geometry":{"type":"Point","coordinates":[-121.94027899999998,49.155848000000049]},"properties":{"OBJECTID":15,"field_1":15,"City__Vill":"Metro Van-Chilliwack","Latitude__":49.155847999999999,"Longitude_":-121.940279,"week_1_fire_season_Week_High":5.9166666666666696,"week_1_fire_season_Week_Number":1}},{"type":"Feature","id":16,"geometry":{"type":"Point","coordinates":[-122.70888999999994,49.245233000000042]},"properties":{"OBJECTID":16,"field_1":16,"City__Vill":"Metro Van-Pitt Meadows","Latitude__":49.245232999999999,"Longitude_":-122.70889,"week_1_fire_season_Week_High":6.75,"week_1_fire_season_Week_Number":1}},{"type":"Feature","id":17,"geometry":{"type":"Point","coordinates":[-122.56710399999997,49.095610000000079]},"properties":{"OBJECTID":17,"field_1":17,"City__Vill":"Metro Van-Langley","Latitude__":49.095610000000001,"Longitude_":-122.567104,"week_1_fire_season_Week_High":12.4166666666667,"week_1_fire_season_Week_Number":1}},{"type":"Feature","id":18,"geometry":{"type":"Point","coordinates":[-121.49911999999995,49.369887000000062]},"properties":{"OBJECTID":18,"field_1":18,"City__Vill":"Metro Van-Hope","Latitude__":49.369886999999999,"Longitude_":-121.49912,"week_1_fire_season_Week_High":5.8333333333333304,"week_1_fire_season_Week_Number":1}},{"type":"Feature","id":19,"geometry":{"type":"Point","coordinates":[-122.49322699999999,52.981686000000082]},"properties":{"OBJECTID":19,"field_1":19,"City__Vill":"Quesnel","Latitude__":52.981686000000003,"Longitude_":-122.493227,"week_1_fire_season_Week_High":12,"week_1_fire_season_Week_Number":1}},{"type":"Feature","id":20,"geometry":{"type":"Point","coordinates":[-127.17732399999994,54.783308000000034]},"properties":{"OBJECTID":20,"field_1":20,"City__Vill":"Smithers","Latitude__":54.783307999999998,"Longitude_":-127.177324,"week_1_fire_season_Week_High":9.9166666666666696,"week_1_fire_season_Week_Number":1}},{"type":"Feature","id":21,"geometry":{"type":"Point","coordinates":[-128.60749999999996,54.521670000000029]},"properties":{"OBJECTID":21,"field_1":21,"City__Vill":"Terrace","Latitude__":54.52167,"Longitude_":-128.60749999999999,"week_1_fire_season_Week_High":5.3333333333333304,"week_1_fire_season_Week_Number":1}},{"type":"Feature","id":22,"geometry":{"type":"Point","coordinates":[-122.15039099999996,52.144280000000037]},"properties":{"OBJECTID":22,"field_1":22,"City__Vill":"Williams Lake","Latitude__":52.144280000000002,"Longitude_":-122.150391,"week_1_fire_season_Week_High":8.4166666666666696,"week_1_fire_season_Week_Number":1}},{"type":"Feature","id":23,"geometry":{"type":"Point","coordinates":[-116.96685279999997,51.297497220000082]},"properties":{"OBJECTID":23,"field_1":23,"City__Vill":"Golden","Latitude__":51.297497219999997,"Longitude_":-116.9668528,"week_1_fire_season_Week_High":9.8333333333333304,"week_1_fire_season_Week_Number":1}},{"type":"Feature","id":24,"geometry":{"type":"Point","coordinates":[-117.66152699999998,49.317698000000064]},"properties":{"OBJECTID":24,"field_1":24,"City__Vill":"Castlegar","Latitude__":49.317698,"Longitude_":-117.66152700000001,"week_1_fire_season_Week_High":6.5,"week_1_fire_season_Week_Number":1}},{"type":"Feature","id":25,"geometry":{"type":"Point","coordinates":[-122.31107799999995,49.141490000000033]},"properties":{"OBJECTID":25,"field_1":25,"City__Vill":"Mission","Latitude__":49.141489999999997,"Longitude_":-122.31107799999999,"week_1_fire_season_Week_High":5.75,"week_1_fire_season_Week_Number":1}},{"type":"Feature","id":26,"geometry":{"type":"Point","coordinates":[-119.27072299999998,50.260617000000082]},"properties":{"OBJECTID":26,"field_1":26,"City__Vill":"Vernon","Latitude__":50.260617000000003,"Longitude_":-119.270723,"week_1_fire_season_Week_High":10.3333333333333,"week_1_fire_season_Week_Number":1}},{"type":"Feature","id":27,"geometry":{"type":"Point","coordinates":[-118.43908799999997,49.031168000000036]},"properties":{"OBJECTID":27,"field_1":27,"City__Vill":"Grand Forks","Latitude__":49.031168000000001,"Longitude_":-118.439088,"week_1_fire_season_Week_High":12.4166666666667,"week_1_fire_season_Week_Number":1}},{"type":"Feature","id":28,"geometry":{"type":"Point","coordinates":[-126.64683299999996,54.39859400000006]},"properties":{"OBJECTID":28,"field_1":28,"City__Vill":"Houston","Latitude__":54.398594000000003,"Longitude_":-126.646833,"week_1_fire_season_Week_High":null,"week_1_fire_season_Week_Number":null}},{"type":"Feature","id":29,"geometry":{"type":"Point","coordinates":[-125.76435399999997,54.230731000000048]},"properties":{"OBJECTID":29,"field_1":29,"City__Vill":"Burns Lake","Latitude__":54.230730999999999,"Longitude_":-125.764354,"week_1_fire_season_Week_High":18.5,"week_1_fire_season_Week_Number":1}},{"type":"Feature","id":30,"geometry":{"type":"Point","coordinates":[-120.85609999999997,56.244730000000061]},"properties":{"OBJECTID":30,"field_1":30,"City__Vill":"Fort St. John","Latitude__":56.244729999999997,"Longitude_":-120.8561,"week_1_fire_season_Week_High":4.1666666666666696,"week_1_fire_season_Week_Number":1}},{"type":"Feature","id":31,"geometry":{"type":"Point","coordinates":[-119.26982099999998,52.832459000000028]},"properties":{"OBJECTID":31,"field_1":31,"City__Vill":"Valemount","Latitude__":52.832459,"Longitude_":-119.26982099999999,"week_1_fire_season_Week_High":null,"week_1_fire_season_Week_Number":null}},{"type":"Feature","id":32,"geometry":{"type":"Point","coordinates":[-123.36316499999998,48.44194200000004]},"properties":{"OBJECTID":32,"field_1":32,"City__Vill":"Victoria","Latitude__":48.441941999999997,"Longitude_":-123.363165,"week_1_fire_season_Week_High":10.4166666666667,"week_1_fire_season_Week_Number":1}},{"type":"Feature","id":33,"geometry":{"type":"Point","coordinates":[-123.15132999999997,49.705160000000035]},"properties":{"OBJECTID":33,"field_1":33,"City__Vill":"Squamish","Latitude__":49.705159999999999,"Longitude_":-123.15133,"week_1_fire_season_Week_High":6.5833333333333304,"week_1_fire_season_Week_Number":1}},{"type":"Feature","id":34,"geometry":{"type":"Point","coordinates":[-123.99388999999996,49.200830000000053]},"properties":{"OBJECTID":34,"field_1":34,"City__Vill":"Nanaimo","Latitude__":49.200830000000003,"Longitude_":-123.99388999999999,"week_1_fire_season_Week_High":10.5833333333333,"week_1_fire_season_Week_Number":1}},{"type":"Feature","id":35,"geometry":{"type":"Point","coordinates":[-124.80662799999999,49.261014000000046]},"properties":{"OBJECTID":35,"field_1":35,"City__Vill":"Port Alberni","Latitude__":49.261014000000003,"Longitude_":-124.806628,"week_1_fire_season_Week_High":13.8333333333333,"week_1_fire_season_Week_Number":1}},{"type":"Feature","id":36,"geometry":{"type":"Point","coordinates":[-125.24843999999996,50.018425000000036]},"properties":{"OBJECTID":36,"field_1":36,"City__Vill":"Campbell River","Latitude__":50.018425000000001,"Longitude_":-125.24844,"week_1_fire_season_Week_High":8.0833333333333304,"week_1_fire_season_Week_Number":1}},{"type":"Feature","id":37,"geometry":{"type":"Point","coordinates":[-128.67143599999997,54.053890000000081]},"properties":{"OBJECTID":37,"field_1":37,"City__Vill":"Kitimat","Latitude__":54.053890000000003,"Longitude_":-128.671436,"week_1_fire_season_Week_High":6.0833333333333304,"week_1_fire_season_Week_Number":1}},{"type":"Feature","id":38,"geometry":{"type":"Point","coordinates":[-123.64640199999997,48.802550000000053]},"properties":{"OBJECTID":38,"field_1":38,"City__Vill":"Duncan","Latitude__":48.802549999999997,"Longitude_":-123.64640199999999,"week_1_fire_season_Week_High":6.4166666666666696,"week_1_fire_season_Week_Number":1}},{"type":"Feature","id":39,"geometry":{"type":"Point","coordinates":[-122.96040199999999,50.144285000000082]},"properties":{"OBJECTID":39,"field_1":39,"City__Vill":"Whistler","Latitude__":50.144285000000004,"Longitude_":-122.960402,"week_1_fire_season_Week_High":7.0833333333333304,"week_1_fire_season_Week_Number":1}},{"type":"Feature","id":40,"geometry":{"type":"Point","coordinates":[-123.47918499999997,49.438848000000064]},"properties":{"OBJECTID":40,"field_1":40,"City__Vill":"Langdale","Latitude__":49.438848,"Longitude_":-123.479185,"week_1_fire_season_Week_High":9.3333333333333304,"week_1_fire_season_Week_Number":1}},{"type":"Feature","id":41,"geometry":{"type":"Point","coordinates":[-123.65392899999995,48.874529000000052]},"properties":{"OBJECTID":41,"field_1":41,"City__Vill":"Crofton","Latitude__":48.874529000000003,"Longitude_":-123.65392900000001,"week_1_fire_season_Week_High":9,"week_1_fire_season_Week_Number":1}},{"type":"Feature","id":42,"geometry":{"type":"Point","coordinates":[-124.00585599999999,54.016516000000081]},"properties":{"OBJECTID":42,"field_1":42,"City__Vill":"Vanderhoof","Latitude__":54.016516000000003,"Longitude_":-124.00585599999999,"week_1_fire_season_Week_High":12.9166666666667,"week_1_fire_season_Week_Number":1}},{"type":"Feature","id":43,"geometry":{"type":"Point","coordinates":[-124.99622199999999,49.682603000000029]},"properties":{"OBJECTID":43,"field_1":43,"City__Vill":"Courtenay","Latitude__":49.682603,"Longitude_":-124.996222,"week_1_fire_season_Week_High":6.8333333333333304,"week_1_fire_season_Week_Number":1}},{"type":"Feature","id":44,"geometry":{"type":"Point","coordinates":[-124.55810399999996,49.886894000000041]},"properties":{"OBJECTID":44,"field_1":44,"City__Vill":"Powell River","Latitude__":49.886893999999998,"Longitude_":-124.558104,"week_1_fire_season_Week_High":2.8333333333333299,"week_1_fire_season_Week_Number":1}}]}